City_ID,City,Cloudiness,Country,Date,Humidity,Lat,Lng,Max Temp,Wind Speed
0,nadvoitsy,88,RU,1552955407,95,63.89,34.27,32.36,4.76
1,yazman,0,SY,1552955407,91,36.74,38.46,44.51,5.55
2,busselton,20,AU,1552955304,35,-33.64,115.35,81.0,8.68
3,mehamn,44,NO,1552955409,81,71.03,27.85,24.53,7.78
4,souillac,90,FR,1552955409,93,45.6,-0.6,46.99,5.82
5,ushuaia,75,AR,1552953600,99,-54.81,-68.31,41.0,23.04
6,salinas,1,US,1552955225,59,36.67,-121.66,77.0,5.82
7,ponta do sol,36,BR,1552955323,91,-20.63,-46.0,71.51,2.42
8,padang,20,ID,1552953600,94,-0.92,100.36,77.0,4.7
9,chuy,8,UY,1552955410,90,-33.69,-53.46,71.69,11.81
10,pimenta bueno,20,BR,1552955411,88,-11.68,-61.19,78.17,2.19
11,paamiut,44,GL,1552955411,100,61.99,-49.67,18.95,31.16
12,penzance,75,GB,1552955406,100,50.12,-5.53,50.0,5.82
13,rikitea,48,PF,1552955411,100,-23.12,-134.97,78.26,19.19
14,luderitz,0,NA,1552955411,91,-26.65,15.16,59.81,7.11
15,mataura,0,NZ,1552955408,78,-46.19,168.86,64.99,4.0
16,fort nelson,75,CA,1552953600,33,58.81,-122.69,59.0,5.82
17,esperance,20,TT,1552955107,69,10.24,-61.45,80.6,9.17
18,hasaki,75,JP,1552954775,54,35.73,140.83,57.99,6.93
19,hithadhoo,92,MV,1552955412,100,-0.6,73.08,84.29,5.77
20,punta arenas,40,CL,1552955006,56,-53.16,-70.91,44.6,8.05
21,butaritari,88,KI,1552955412,100,3.07,172.79,82.4,15.84
22,smithers,75,CA,1552953600,63,54.78,-127.17,51.8,4.7
23,lalibela,36,ET,1552955413,95,12.04,39.05,49.1,1.97
24,lebu,0,ET,1552955413,72,8.96,38.73,47.03,4.65
25,cabo san lucas,5,MX,1552954606,53,22.89,-109.91,77.0,10.29
26,aykhal,32,RU,1552955414,55,65.95,111.51,-12.38,2.75
27,grand-santi,64,GF,1552955414,44,4.27,-54.38,87.26,4.88
28,severo-yeniseyskiy,88,RU,1552955374,87,60.37,93.04,20.57,2.75
29,luau,68,CD,1552955416,98,-10.7,22.23,66.11,2.08
30,pevek,64,RU,1552955416,86,69.7,170.27,-6.53,29.15
31,qaanaaq,0,GL,1552955416,86,77.48,-69.36,-28.58,7.78
32,port lincoln,36,AU,1552955417,92,-34.72,135.86,65.3,6.11
33,bredasdorp,80,ZA,1552954582,94,-34.53,20.04,69.8,2.24
34,marshall,1,US,1552955414,56,39.39,-87.69,45.0,3.36
35,arraial do cabo,20,BR,1552953600,83,-22.97,-42.02,80.6,8.05
36,bud,68,NO,1552954800,96,62.91,6.91,35.6,6.93
37,lagoa,0,PT,1552955417,71,37.14,-8.45,57.0,3.36
38,bonthe,0,SL,1552955419,82,7.53,-12.5,80.06,4.76
39,pacifica,20,US,1552955411,67,37.61,-122.49,73.4,16.11
40,sungairaya,48,ID,1552955386,86,0.7,108.9,78.53,4.43
41,anadyr,0,RU,1552955006,69,64.73,177.51,-11.01,15.66
42,acajutla,0,SV,1552955145,75,13.59,-89.83,75.99,3.0
43,port elizabeth,1,US,1552955417,69,39.31,-74.98,42.8,3.36
44,airai,68,TL,1552955419,74,-8.93,125.41,76.55,2.42
45,saint-philippe,40,CA,1552955310,49,45.36,-73.48,28.99,9.17
46,emerald,12,AU,1552955260,58,-23.53,148.16,84.99,6.93
47,alta floresta,48,BR,1552955420,94,-9.87,-56.08,78.26,2.19
48,geraldton,75,CA,1552953600,54,49.72,-86.95,30.2,2.24
49,avarua,8,CK,1552951800,78,-21.21,-159.78,82.4,9.17
50,kapaa,40,US,1552955301,50,22.08,-159.32,77.0,13.87
51,ardakan,20,IR,1552953600,36,32.31,54.02,46.4,9.17
52,yellowknife,75,CA,1552955115,52,62.45,-114.38,46.4,6.93
53,norman wells,40,CA,1552953600,33,65.28,-126.83,59.0,2.24
54,chokurdakh,56,RU,1552955421,83,70.62,147.9,-13.46,5.21
55,bluff,0,AU,1552955421,75,-23.58,149.07,81.86,4.43
56,konza,0,KE,1552953600,82,-1.74,37.13,66.2,8.05
57,san fernando,0,CL,1552950000,32,-34.58,-70.99,68.0,13.87
58,hobart,75,AU,1552955296,63,-42.88,147.33,70.0,5.82
59,paita,24,PE,1552955422,60,-5.09,-81.11,81.68,8.12
60,xinzhi,20,TW,1552955398,78,22.54,120.62,75.99,4.7
61,hammerfest,40,NO,1552953000,85,70.66,23.68,23.0,9.17
62,san juan,0,AR,1552955298,57,-31.54,-68.53,68.63,3.98
63,albany,75,US,1552955378,37,42.65,-73.75,36.0,5.82
64,port alfred,20,ZA,1552955407,95,-33.59,26.89,70.0,1.01
65,tazovskiy,80,RU,1552955426,80,67.47,78.7,8.51,8.9
66,hermanus,32,ZA,1552954582,86,-34.42,19.24,69.01,5.99
67,dzilam gonzalez,80,MX,1552955426,74,21.28,-88.93,76.55,5.32
68,kurilsk,32,RU,1552955427,83,45.23,147.88,36.41,18.86
69,batamshinskiy,75,KZ,1552953600,92,50.56,58.27,23.0,13.42
70,cape town,0,ZA,1552955290,88,-33.93,18.42,70.0,1.12
71,hilo,20,US,1552955365,44,19.71,-155.08,78.8,11.41
72,innisfail,40,CA,1552955415,52,52.02,-113.95,50.0,5.82
73,kenai,75,US,1552954907,49,60.55,-151.26,48.2,12.75
74,jamestown,68,AU,1552955322,84,-33.21,138.6,71.42,4.76
75,batagay,0,RU,1552955430,54,67.65,134.64,-19.31,2.86
76,dingle,48,PH,1552955430,82,11.0,122.67,77.45,12.71
77,shingu,75,JP,1552953600,81,33.72,135.99,51.8,8.05
78,vaini,0,IN,1552953600,63,15.34,74.49,64.4,3.36
79,port hedland,64,AU,1552953600,55,-20.31,118.58,89.6,6.93
80,castro,64,CL,1552953600,70,-42.48,-73.76,46.4,5.82
81,east london,92,ZA,1552955344,99,-33.02,27.91,75.56,15.95
82,bontang,24,ID,1552955431,96,0.12,117.47,81.05,8.46
83,sao felix do xingu,48,BR,1552955296,94,-6.64,-51.99,77.18,2.19
84,trairi,88,BR,1552955432,100,-3.28,-39.27,82.58,7.9
85,udachnyy,12,RU,1552955432,42,66.42,112.4,-14.9,2.42
86,havre-saint-pierre,75,CA,1552953600,73,50.23,-63.6,19.4,10.29
87,cunha,75,BR,1552953600,88,-23.08,-44.96,75.2,2.24
88,katsuura,90,JP,1552954871,100,33.93,134.5,48.2,11.41
89,russellville,1,US,1552955229,31,35.28,-93.13,60.8,3.36
90,tessalit,0,ML,1552955433,25,20.2,1.01,61.97,3.76
91,coquimbo,0,CL,1552953600,87,-29.95,-71.34,59.0,5.82
92,mayo,90,CA,1552953600,37,63.59,-135.9,53.6,9.17
93,pauini,20,BR,1552955433,84,-7.71,-67.0,83.12,2.42
94,ronda,80,PH,1552955434,96,10.0,123.41,78.35,11.59
95,kaeo,32,NZ,1552954087,67,-35.1,173.78,73.0,8.99
96,shimoda,75,JP,1552955411,54,34.7,138.93,60.01,10.29
97,abu dhabi,0,AE,1552953600,55,24.47,54.37,66.2,4.7
98,namangan,76,UZ,1552953600,50,41.0,71.67,53.6,2.24
99,vostok,0,RU,1552955434,64,46.45,135.83,33.8,2.64
100,vila velha,20,BR,1552955289,94,-3.71,-38.6,78.8,2.24
101,nyurba,0,RU,1552955435,71,63.29,118.35,-2.39,2.64
102,nanortalik,76,GL,1552955199,99,60.14,-45.24,30.56,23.22
103,san quintin,0,PH,1552955435,71,17.54,120.52,74.57,4.09
104,tuktoyaktuk,40,CA,1552953600,74,69.44,-133.03,37.4,24.16
105,sao joao da barra,20,BR,1552950000,78,-21.64,-41.05,82.4,11.41
106,kashan,0,IR,1552950000,36,33.99,51.44,48.2,2.98
107,beringovskiy,36,RU,1552955437,100,63.05,179.32,-3.38,11.7
108,poum,0,MK,1552955437,88,41.28,20.71,31.55,2.08
109,valente,0,BR,1552955438,56,-11.41,-39.46,78.26,5.32
110,broome,36,GB,1552955291,86,52.47,1.45,45.0,4.7
111,provideniya,0,RU,1552953600,61,64.42,-173.23,12.2,2.24
112,scarborough,20,GB,1552955413,87,54.28,-0.41,46.0,2.24
113,tautira,20,PF,1552955002,70,-17.73,-149.15,87.8,4.7
114,bambous virieux,40,MU,1552955343,88,-20.34,57.76,80.6,4.7
115,huilong,100,CN,1552955440,87,28.89,110.18,50.18,2.08
116,velur,40,IN,1552953600,88,10.64,76.16,80.6,3.65
117,uyuni,48,BO,1552955441,17,-20.46,-66.82,49.28,3.98
118,kaitangata,48,NZ,1552955441,86,-46.28,169.85,62.42,5.99
119,la ronge,40,CA,1552953600,52,55.1,-105.3,42.8,4.7
120,romitan,0,UZ,1552953600,62,39.93,64.38,53.6,6.93
121,doha,0,QA,1552953600,37,25.29,51.53,68.0,4.7
122,bubaque,0,GW,1552955441,100,11.28,-15.83,76.37,13.82
123,tasiilaq,68,GL,1552953000,68,65.61,-37.64,26.6,11.41
124,jackson,1,US,1552955427,34,35.61,-88.82,53.01,9.17
125,teya,75,MX,1552954598,54,21.05,-89.07,82.4,6.93
126,constitucion,75,MX,1552955416,24,23.99,-104.67,68.0,25.28
127,matongo,12,BI,1552955443,93,-3.07,29.61,56.66,0.74
128,tahe,88,CN,1552955443,56,52.34,124.71,17.15,4.09
129,barrow,0,AR,1552955443,70,-38.31,-60.23,56.66,9.46
130,kodiak,1,US,1552955389,4,39.95,-94.76,48.2,2.53
131,puerto ayora,0,EC,1552954559,74,-0.74,-90.35,82.4,8.05
132,karpogory,88,RU,1552955444,83,64.0,44.44,35.06,10.36
133,ippy,0,CF,1552955444,63,6.26,21.2,68.9,2.19
134,ribeira grande,20,PT,1552955444,98,38.52,-28.7,61.34,13.6
135,contamana,44,PE,1552955444,72,-7.35,-75.01,83.21,2.64
136,salekhard,24,RU,1552955444,59,66.54,66.62,2.03,5.32
137,muisne,20,EC,1552950000,83,0.61,-80.02,82.4,9.17
138,mahebourg,40,MU,1552955343,88,-20.41,57.7,80.6,4.7
139,hovd,75,NO,1552955415,60,63.83,10.7,39.2,12.75
140,muros,0,ES,1552955410,87,42.77,-9.06,50.0,8.05
141,torbay,40,CA,1552955435,68,47.66,-52.73,26.01,17.22
142,mandalgovi,92,MN,1552955446,70,45.76,106.27,23.54,17.96
143,coihaique,0,CL,1552950000,61,-45.58,-72.07,46.4,17.22
144,mulege,0,MX,1552955446,29,26.88,-111.98,75.38,4.21
145,new norfolk,75,AU,1552955416,59,-42.78,147.06,70.0,4.7
146,mackay,75,CA,1552953600,22,53.65,-115.58,60.8,10.29
147,puerto princesa,40,PH,1552953600,74,9.74,118.73,80.6,4.7
148,carnarvon,0,ZA,1552955447,88,-30.97,22.13,53.42,3.76
149,husavik,12,CA,1552955444,77,50.56,-96.99,36.0,3.0
150,sitka,0,US,1552954534,44,37.17,-99.65,57.99,5.01
151,aracuai,92,BR,1552955447,80,-16.85,-42.07,76.73,1.3
152,praia,0,BR,1552950000,88,-20.25,-43.81,73.4,0.96
153,cayenne,90,GF,1552953600,78,4.94,-52.33,78.8,2.24
154,karratha,0,AU,1552955448,66,-20.74,116.85,79.52,4.65
155,cermik,0,TR,1552953000,75,38.14,39.45,41.0,4.7
156,bambanglipuro,64,ID,1552955449,94,-7.95,110.28,75.65,4.09
157,atagay,88,RU,1552955449,78,55.1,99.39,21.74,4.21
158,kiunga,48,PG,1552955449,83,-6.12,141.3,80.06,0.51
159,chuncheng,100,CN,1552955450,98,22.17,111.79,67.46,3.42
160,pisco,75,PE,1552950000,30,-13.71,-76.2,71.6,20.8
161,egvekinot,8,RU,1552955406,66,66.32,-179.17,-10.58,2.98
162,portland,1,US,1552955248,25,45.52,-122.67,69.01,24.16
163,eureka,1,US,1552955105,81,40.8,-124.16,66.0,4.7
164,mountain home,1,US,1552955159,21,43.13,-115.69,62.6,9.17
165,malabo,20,CD,1552955450,76,1.56,30.43,61.88,1.97
166,victoria,75,BN,1552953600,88,5.28,115.24,82.4,7.45
167,longyearbyen,75,NO,1552953000,85,78.22,15.63,14.0,20.8
168,berasia,0,IN,1552955453,55,23.63,77.43,56.03,4.32
169,tura,0,IN,1552955453,90,25.52,90.21,56.39,2.19
170,clyde river,90,CA,1552953960,75,70.47,-68.59,-14.81,25.28
171,severo-kurilsk,64,RU,1552955453,94,50.68,156.12,31.28,10.69
172,los llanos de aridane,40,ES,1552955101,59,28.66,-17.92,64.4,11.41
173,khandyga,0,RU,1552955454,64,62.65,135.58,-4.19,2.42
174,nikolskoye,75,RU,1552955435,93,59.7,30.79,37.0,11.18
175,wattegama,56,LK,1552955454,95,7.35,80.68,68.18,2.98
176,savannah bight,0,HN,1552955454,94,16.45,-85.85,80.87,7.11
177,inongo,48,CD,1552955454,97,-1.93,18.29,74.39,2.19
178,rehau,40,DE,1552955426,92,50.25,12.03,34.0,4.7
179,launceston,75,AU,1552955409,59,-41.43,147.14,69.01,13.87
180,helong,20,CN,1552955455,97,25.94,116.13,59.99,3.42
181,san-pedro,0,CI,1552955236,85,4.75,-6.64,80.96,8.57
182,port macquarie,0,AU,1552955105,73,-31.43,152.91,82.0,4.7
183,dikson,80,RU,1552955455,94,73.51,80.55,24.26,21.21
184,buriti bravo,64,BR,1552955455,93,-5.84,-43.84,73.67,0.63
185,namibe,0,AO,1552955456,100,-15.19,12.15,76.82,9.01
186,orapa,68,BW,1552955456,30,-21.28,25.37,82.13,10.13
187,gobabis,32,NA,1552955456,63,-22.45,18.97,68.9,3.98
188,karaton,40,ID,1552955416,78,-6.34,106.1,78.8,11.41
189,bathsheba,40,BB,1552950000,65,13.22,-59.52,78.8,16.11
190,iquique,0,CL,1552953600,68,-20.22,-70.14,69.8,12.75
191,ulladulla,75,AU,1552955366,100,-35.36,150.48,72.0,16.11
192,westport,88,IE,1552955406,92,53.8,-9.52,46.0,15.01
193,vilyuysk,12,RU,1552955457,58,63.75,121.63,-6.71,2.98
194,olinda,75,EC,1552955418,88,-2.03,-79.75,80.6,9.17
195,cabedelo,0,BR,1552953600,88,-6.97,-34.84,78.8,2.24
196,aguadilla,90,PR,1552955245,78,18.43,-67.15,78.01,9.17
197,adrar,0,DZ,1552953600,15,27.87,-0.29,64.4,6.93
198,lorengau,68,PG,1552955458,97,-2.02,147.27,83.12,9.8
199,roma,40,IT,1552955224,76,41.89,12.48,51.01,5.82
200,petropavlovsk-kamchatskiy,20,RU,1552953600,58,53.05,158.65,28.4,3.31
201,riyadh,0,SA,1552953600,40,24.63,46.72,53.6,2.64
202,quatre cocos,40,MU,1552955343,88,-20.21,57.76,80.6,4.7
203,dwarka,20,IN,1552953600,82,28.58,77.04,60.8,5.99
204,kununurra,12,AU,1552953600,58,-15.77,128.74,87.8,6.93
205,vila,0,IT,1552955450,80,45.18,8.4,46.99,9.17
206,merrill,1,US,1552955405,15,42.03,-121.6,64.4,14.99
207,wonosobo,20,ID,1552951800,88,-7.36,109.9,77.0,2.24
208,arcos de la frontera,12,ES,1552955417,93,36.75,-5.81,57.2,5.82
209,ketchikan,1,US,1552953360,55,55.34,-131.65,62.6,4.7
210,saint anthony,1,US,1552955137,36,43.97,-111.68,50.0,4.7
211,mtambile,92,TZ,1552955460,100,-5.38,39.7,81.32,9.24
212,sao filipe,12,CV,1552955460,92,14.9,-24.5,72.23,10.92
213,faya,0,SA,1552953600,87,18.39,42.45,62.6,10.29
214,brae,20,GB,1552953000,80,60.4,-1.35,42.8,14.99
215,marovoay,20,MG,1552953600,88,-16.11,46.64,80.6,2.24
216,goundam,0,ML,1552955461,29,16.42,-3.66,75.11,10.25
217,nadadores,36,MX,1552955403,54,27.03,-101.59,59.0,4.0
218,trelew,20,AR,1552955461,33,-43.25,-65.31,55.76,9.8
219,yurimaguas,40,PE,1552950000,94,-5.9,-76.1,78.8,4.7
220,keningau,75,MY,1552953600,74,5.33,116.16,82.4,4.7
221,talcahuano,0,CL,1552953600,50,-36.72,-73.12,57.2,20.8
222,hualmay,24,PE,1552955462,82,-11.1,-77.61,72.41,5.1
223,cururupu,36,BR,1552955462,91,-1.82,-44.87,78.08,4.65
224,tilichiki,20,RU,1552955462,83,60.47,166.1,0.14,3.98
225,khatanga,88,RU,1552955462,85,71.98,102.47,2.66,8.79
226,saint george,20,GR,1552955009,100,39.45,22.34,54.0,3.2
227,portobelo,40,PA,1552955056,58,9.55,-79.65,84.2,10.29
228,santa marta,40,CO,1552955149,62,11.24,-74.21,84.2,16.11
229,narsaq,80,GL,1552953000,74,60.91,-46.05,28.4,9.17
230,xiaoweizhai,88,CN,1552955464,94,26.23,107.51,58.01,9.46
231,saskylakh,44,RU,1552955464,37,71.97,114.09,-24.89,3.2
232,beipiao,0,CN,1552955464,29,41.8,120.76,56.48,10.69
233,tiksi,12,RU,1552955464,62,71.64,128.87,-21.56,3.42
234,tosagua,40,EC,1552953600,83,-0.79,-80.23,80.6,6.93
235,hay river,75,CA,1552953600,40,60.82,-115.79,53.6,10.29
236,soledade,0,BR,1552953600,83,-7.06,-36.37,75.2,5.82
237,shellbrook,20,CA,1552953600,52,53.22,-106.39,42.8,10.29
238,kangasala,90,FI,1552955408,100,61.46,24.07,35.01,2.24
239,bonfim,0,BR,1552950000,88,-20.33,-44.24,73.4,1.74
240,kirakira,12,SB,1552955466,100,-10.46,161.92,82.58,9.35
241,lima,0,PE,1552955107,78,-12.06,-77.04,73.4,14.99
242,nantucket,1,US,1552955230,55,41.28,-70.1,37.99,13.87
243,nemuro,0,JP,1552953600,69,43.32,145.57,39.2,13.87
244,hermosillo,5,MX,1552955375,18,29.09,-110.96,87.8,6.93
245,kruisfontein,68,ZA,1552955467,95,-34.0,24.73,68.36,5.55
246,mar del plata,92,AR,1552955467,47,-46.43,-67.52,58.1,13.38
247,tual,44,ID,1552955468,98,-5.67,132.75,84.2,8.79
248,aras,0,YE,1552955470,84,14.28,44.38,45.32,1.86
249,georgetown,20,GY,1552953600,78,6.8,-58.16,80.6,11.41
250,belaya gora,12,RU,1552955471,48,68.54,146.19,-16.34,3.87
251,muroto,75,JP,1552953600,87,33.37,134.14,50.0,10.29
252,cidreira,0,BR,1552955471,93,-30.17,-50.22,70.25,14.05
253,urubamba,90,PE,1552953600,81,-13.31,-72.12,50.0,3.36
254,inuvik,75,CA,1552953600,45,68.36,-133.71,48.2,8.79
255,lavrentiya,0,RU,1552955472,100,65.58,-170.99,5.63,6.67
256,sola,0,NO,1552955428,80,58.89,5.65,35.6,3.36
257,ngorongoro,0,TZ,1552955472,80,-3.24,35.49,55.31,4.43
258,biak,0,ID,1552955472,85,-0.91,122.88,82.58,2.19
259,lufilufi,75,WS,1552953806,66,-13.87,-171.6,91.4,8.05
260,bustamante,36,MX,1552955473,48,26.53,-100.51,56.93,7.0
261,iqaluit,20,CA,1552954981,67,63.75,-68.52,-22.01,5.82
262,nishihara,75,JP,1552955406,53,35.74,139.53,60.01,1.12
263,diffa,0,NE,1552955473,18,13.32,12.61,81.5,12.82
264,batagay-alyta,0,RU,1552955474,31,67.8,130.41,-23.36,2.75
265,baoqing,64,CN,1552955475,45,46.32,132.2,35.42,3.76
266,tuatapere,0,NZ,1552955408,78,-46.13,167.69,64.99,4.0
267,miranda,75,CO,1552953600,61,3.25,-76.23,78.8,11.41
268,vila franca do campo,20,PT,1552955434,71,37.72,-25.43,55.4,11.41
269,hobyo,24,SO,1552955475,87,5.35,48.53,78.35,11.81
270,thompson,40,CA,1552953600,56,55.74,-97.86,41.0,4.7
271,moron,8,VE,1552955476,76,10.49,-68.2,72.95,3.53
272,lanzhou,0,CN,1552953600,55,36.06,103.82,35.6,2.24
273,alamogordo,1,US,1552955225,26,32.9,-105.96,62.01,10.29
274,comodoro rivadavia,0,AR,1552953600,78,-45.87,-67.48,60.8,9.17
275,port hawkesbury,1,CA,1552955474,73,45.62,-61.36,26.01,2.24
276,afsin,0,TR,1552955477,78,38.25,36.91,23.0,3.65
277,skibbereen,75,IE,1552953600,87,51.55,-9.27,44.6,5.82
278,grand gaube,40,MU,1552955343,88,-20.01,57.66,80.6,4.7
279,faanui,0,PF,1552955477,100,-16.48,-151.75,83.48,3.09
280,veraval,20,FR,1552955443,100,49.65,0.71,44.6,3.36
281,sanok,68,PL,1552955282,93,49.56,22.21,39.0,8.05
282,mitrofanovka,0,UA,1552955478,94,45.45,34.68,39.2,10.25
283,sarankhola,12,BD,1552955478,81,22.31,89.79,70.43,7.34
284,atuona,12,PF,1552955478,100,-9.8,-139.03,82.76,15.28
285,port hardy,20,CA,1552953600,42,50.7,-127.42,62.6,2.24
286,barcelos,0,PT,1552955256,70,41.53,-8.62,51.01,8.05
287,pato branco,20,BR,1552955304,96,-26.23,-52.67,65.3,1.52
288,sur,68,OM,1552955479,100,22.57,59.53,69.98,8.23
289,lazaro cardenas,5,MX,1552955116,26,28.39,-105.62,62.6,10.29
290,iberia,12,PE,1552955479,86,-11.41,-69.49,79.25,1.63
291,koslan,88,RU,1552955479,83,63.46,48.9,34.43,8.46
292,mwinilunga,0,ZM,1552955481,90,-11.73,24.43,63.23,2.19
293,alofi,75,NU,1552953600,74,-19.06,-169.92,84.2,8.05
294,sambava,24,MG,1552955481,100,-14.27,50.17,79.88,12.26
295,ahipara,12,NZ,1552955481,69,-35.17,173.16,74.93,5.1
296,tandil,0,AR,1552955375,74,-37.33,-59.14,60.01,7.0
297,berlevag,75,NO,1552949400,74,70.86,29.09,28.4,1.12
298,okhotsk,0,RU,1552955481,97,59.36,143.24,6.08,5.32
299,flinders,75,AU,1552955417,100,-34.58,150.85,77.0,16.11
300,fonte boa,36,BR,1552955482,87,-2.51,-66.09,77.0,3.09
301,cairns,75,AU,1552955456,88,-16.92,145.77,78.8,10.29
302,nurota,80,UZ,1552953600,71,40.56,65.69,51.8,6.93
303,verkhnyaya inta,44,RU,1552955482,84,65.99,60.32,28.85,5.44
304,golden,20,CA,1552955426,52,51.3,-116.96,44.6,1.41
305,alugan,80,PH,1552955483,96,12.22,125.48,79.25,13.04
306,saint-pierre,0,FR,1552955225,86,48.95,4.24,33.8,2.24
307,cherdakly,0,RU,1552953600,92,54.36,48.84,17.6,2.24
308,labuhan,64,ID,1552955485,93,-2.54,115.51,75.38,2.42
309,jumla,32,NP,1552955485,80,29.28,82.18,23.45,2.19
310,tabou,0,CI,1552955485,95,4.42,-7.36,84.2,13.04
311,galle,75,US,1552955482,31,29.74,-97.91,64.99,9.17
312,semporna,75,MY,1552953600,78,4.48,118.61,80.6,6.93
313,ancud,20,CL,1552953600,70,-41.87,-73.83,46.4,5.82
314,kuandian,92,CN,1552955486,66,40.73,124.78,38.57,5.44
315,sao miguel do araguaia,12,BR,1552955486,92,-13.28,-50.16,78.17,3.2
316,isangel,75,VU,1552953600,62,-19.55,169.27,89.6,11.41
317,beloha,36,MG,1552955486,89,-25.17,45.06,70.88,3.2
318,macaparana,0,BR,1552953600,83,-7.56,-35.44,75.2,5.82
319,port-gentil,40,GA,1552950000,94,-0.72,8.78,82.4,1.12
320,fortuna,0,ES,1552955486,71,38.18,-1.13,53.6,5.82
321,christchurch,32,NZ,1552955285,68,-43.53,172.64,71.01,4.7
322,port blair,0,IN,1552955482,100,11.67,92.75,82.94,5.66
323,lakhdenpokhya,92,RU,1552955462,87,61.52,30.2,36.0,3.0
324,yenagoa,0,NG,1552955488,92,4.92,6.26,77.63,5.99
325,aba,75,NG,1552953600,88,5.11,7.36,78.8,9.24
326,saldanha,0,PT,1552955489,85,41.42,-6.55,32.63,3.76
327,dalkola,32,IN,1552955489,94,25.88,87.84,57.38,2.86
328,kutulik,48,RU,1552955489,77,53.35,102.79,19.31,10.58
329,sisimiut,20,GL,1552955288,67,66.94,-53.67,-16.25,5.99
330,igarka,68,RU,1552955489,78,67.47,86.57,2.21,10.13
331,cross lanes,75,GB,1552955406,100,50.05,-5.22,50.0,5.82
332,verkhoyansk,0,RU,1552955490,31,67.55,133.39,-22.28,2.64
333,itarema,36,BR,1552955490,90,-2.92,-39.92,78.35,5.21
334,haimen,0,CN,1552955300,77,31.87,121.18,55.99,4.65
335,upernavik,24,GL,1552955490,100,72.79,-56.15,-12.47,2.98
336,namatanai,0,PG,1552955490,95,-3.66,152.44,84.29,9.13
337,buenavista,40,CO,1552953600,93,4.36,-75.74,77.0,3.36
338,avera,1,US,1552955442,26,33.19,-82.53,62.6,4.7
339,aquiraz,20,BR,1552955289,94,-3.9,-38.39,78.8,2.24
340,saint-augustin,90,FR,1552955409,100,44.83,-0.61,46.99,4.7
341,salalah,0,OM,1552949400,17,17.01,54.1,82.4,10.29
342,noumea,36,NC,1552953600,66,-22.28,166.46,84.2,6.93
343,wufeng,75,TW,1552955430,83,24.63,121.12,77.0,12.75
344,abu samrah,0,SY,1552955492,94,35.3,37.18,45.68,5.77
345,kapurthala,40,IN,1552953600,93,31.38,75.38,59.0,2.86
346,sorland,32,NO,1552955493,100,67.67,12.69,37.94,6.67
347,erenhot,0,CN,1552955493,49,43.65,111.97,37.13,10.25
348,hailey,5,US,1552954580,48,43.52,-114.32,41.0,2.08
349,tashla,0,RU,1552953600,79,53.71,49.75,24.8,2.24
350,klyuchi,44,RU,1552955494,81,52.25,79.17,11.84,5.99
351,formosa do rio preto,0,BR,1552955470,86,-11.04,-45.19,75.11,2.42
352,zonguldak,0,TR,1552955494,82,41.25,31.83,43.25,3.42
353,laguna,5,MX,1552952400,20,27.52,-110.01,82.4,10.29
354,kisanga,20,CD,1552955494,89,-11.72,27.4,63.5,2.75
355,dongsheng,0,CN,1552955494,81,29.72,112.52,55.85,9.69
356,plettenberg bay,32,ZA,1552955495,100,-34.05,23.37,68.9,5.66
357,navahrudak,0,BY,1552955495,85,53.59,25.82,35.06,11.81
358,roebourne,0,AU,1552955495,66,-20.77,117.15,79.52,4.65
359,dzidzantun,80,MX,1552955495,74,21.25,-89.05,76.55,5.32
360,marawi,100,PH,1552954592,95,8.0,124.29,73.99,4.0
361,pochutla,40,MX,1552955468,70,15.74,-96.47,86.0,6.93
362,ocampo,64,PH,1552955496,88,13.56,123.37,79.16,10.8
363,locri,20,IT,1552955435,62,38.24,16.26,59.0,6.93
364,hofn,92,IS,1552955496,95,64.25,-15.21,42.98,28.92
365,hearst,20,CA,1552955497,63,49.69,-83.67,17.24,2.19
366,saint-louis,0,CH,1552955492,82,47.59,7.56,36.0,3.36
367,ankazoabo,8,MG,1552955497,85,-22.29,44.51,70.16,3.76
368,peniche,0,PT,1552955143,93,39.36,-9.38,55.0,1.12
369,manta,76,RO,1552955410,79,45.1,24.1,39.0,5.77
370,college,75,US,1552955440,45,64.86,-147.8,50.0,5.82
371,ilhabela,0,BR,1552955246,96,-23.78,-45.36,81.5,13.82
372,te anau,0,NZ,1552955499,78,-45.41,167.72,65.3,3.42
373,calvia,75,ES,1552955288,100,39.57,2.51,55.99,3.36
374,togur,48,RU,1552955499,92,58.36,82.83,18.95,5.66
375,hambantota,20,LK,1552954200,100,6.12,81.12,75.2,5.82
376,pangai,20,TO,1552953600,74,-19.8,-174.35,84.2,6.93
377,matara,48,PE,1552955500,88,-13.74,-72.9,46.85,0.74
378,san luis,8,AR,1552955502,55,-33.3,-66.34,68.63,6.33
379,san carlos de bariloche,75,AR,1552953600,64,-41.13,-71.31,41.0,11.41
380,ukiah,1,US,1552955499,17,39.15,-123.21,75.2,12.75
381,verkhniye tatyshly,64,RU,1552955502,71,56.29,55.86,19.58,5.21
382,touros,0,BR,1552953600,88,-5.2,-35.46,80.6,4.7
383,polunochnoye,12,RU,1552955503,60,60.87,60.43,12.74,2.75
384,carauari,68,BR,1552955503,98,-4.88,-66.9,74.66,9.24
385,alaca,0,TR,1552955503,73,40.17,34.84,30.2,1.19
386,nizhniy kuranakh,48,RU,1552955503,69,58.84,125.49,8.24,3.53
387,sahibganj,0,IN,1552955503,94,25.24,87.63,56.84,2.75
388,cobija,75,BR,1552950000,88,-11.02,-68.77,82.4,3.36
389,taybad,64,IR,1552955504,94,34.74,60.78,40.55,15.84
390,santiago del estero,0,AR,1552955504,68,-27.8,-64.26,73.4,7.0
391,nioro,0,GM,1552955504,33,13.79,-15.05,77.45,8.9
392,mahajanga,20,MG,1552953600,88,-15.72,46.32,80.6,2.24
393,mundwa,0,IN,1552955504,60,27.06,73.82,58.1,2.75
394,srednekolymsk,44,RU,1552955505,58,67.46,153.71,-12.38,3.53
395,conil,76,FR,1552955505,83,44.97,3.72,34.07,7.0
396,half moon bay,5,US,1552955502,40,37.46,-122.43,77.0,13.87
397,warrington,40,GB,1552955343,93,53.39,-2.59,48.0,6.93
398,xinyu,88,CN,1552955505,93,27.8,114.93,58.01,3.76
399,kaseda,75,JP,1552955004,100,31.42,130.32,57.2,13.87
400,yulara,0,AU,1552953600,14,-25.24,130.99,87.8,12.75
401,rafai,0,CF,1552955507,54,4.95,23.92,72.5,6.44
402,amga,56,RU,1552955507,68,60.89,131.98,-2.03,3.09
403,ploemeur,75,FR,1552955494,93,47.73,-3.43,46.0,3.36
404,pangnirtung,20,CA,1552955507,70,66.15,-65.72,-16.52,18.07
405,taywarah,0,AF,1552955508,72,33.35,64.42,16.34,3.2
406,slave lake,1,CA,1552953600,49,55.28,-114.77,39.2,3.36
407,wewak,100,PG,1552955508,89,-3.55,143.63,78.89,3.42
408,astara,90,AZ,1552953360,100,38.42,48.87,48.2,11.41
409,guerrero negro,0,MX,1552955508,49,27.97,-114.04,66.74,12.71
410,sinnamary,64,GF,1552955508,94,5.38,-52.96,79.25,10.47
411,baykit,48,RU,1552955509,61,61.68,96.39,6.26,4.21
412,newnan,1,US,1552955201,28,33.38,-84.8,55.99,6.93
413,poyarkovo,80,RU,1552955509,67,49.62,128.65,28.31,3.42
414,yiyang,88,CN,1552955509,91,28.59,112.35,56.66,10.69
415,sarh,0,TD,1552953600,21,9.14,18.39,84.2,3.53
416,aswan,0,EG,1552950000,62,24.09,32.9,66.2,10.29
417,machachi,75,EC,1552954639,87,-0.51,-78.57,62.6,3.36
418,utete,80,TZ,1552955510,92,-7.99,38.76,77.9,2.86
419,villeneuve-sur-lot,90,FR,1552955505,87,44.41,0.7,44.6,5.82
420,costinesti,0,RO,1552953600,87,43.95,28.63,45.0,11.41
421,aklavik,75,CA,1552953600,45,68.22,-135.01,48.2,2.75
422,monroe,75,US,1552955500,64,41.91,-83.4,39.99,3.36
423,atar,32,MR,1552955512,19,20.52,-13.05,66.2,7.78
424,caranavi,68,BO,1552955512,87,-15.83,-67.57,69.53,1.41
425,goksun,0,TR,1552953000,71,38.02,36.5,51.8,1.12
426,whitehorse,75,CA,1552954983,46,60.72,-135.06,50.0,16.11
427,lata,44,IN,1552955512,70,30.78,78.62,39.83,2.3
428,leshukonskoye,92,RU,1552955512,82,64.9,45.76,34.7,9.69
429,murray bridge,0,AU,1552955486,36,-35.12,139.28,81.0,4.88
430,micheweni,92,TZ,1552955513,100,-4.97,39.83,80.87,8.12
431,bondo,0,CD,1552955513,48,3.81,23.69,78.53,3.65
432,yerbogachen,64,RU,1552955513,79,61.28,108.01,11.66,3.53
433,kasongo-lunda,68,CD,1552955513,97,-6.48,16.82,68.45,2.19
434,barroso,0,BR,1552953600,88,-23.67,-46.22,80.6,3.87
435,irbeyskoye,76,RU,1552955514,87,55.64,95.45,20.66,9.01
436,west plains,1,US,1552955323,32,36.73,-91.85,55.99,8.05
437,arawa,0,NG,1552955514,82,7.05,3.9,79.61,4.99
438,omboue,76,GA,1552955514,99,-1.57,9.26,84.65,5.66
439,mogocha,48,RU,1552955514,46,53.73,119.76,13.91,7.78
440,rolante,0,BR,1552955305,88,-29.65,-50.58,73.4,5.82
441,chalmette,90,US,1552955383,67,29.94,-89.96,62.01,3.36
442,suntar,48,RU,1552955514,63,62.16,117.65,3.38,2.75
443,roswell,1,US,1552955356,25,33.39,-104.52,62.6,10.29
444,kibre mengist,0,ET,1552955516,74,5.87,38.99,54.05,3.09
445,aguimes,75,ES,1552955435,63,27.91,-15.45,64.4,20.8
446,bereda,20,ES,1552955469,81,43.27,-7.54,50.0,2.24
447,balkhash,0,KZ,1552955516,83,46.84,74.98,17.96,19.86
448,general roca,40,AR,1552953600,27,-39.03,-67.58,64.4,8.05
449,cape coast,12,GH,1552955517,82,5.11,-1.24,79.7,6.67
450,caravelas,0,BR,1552955517,100,-17.73,-39.27,83.75,17.29
451,suhbaatar,0,MN,1552955517,63,50.23,106.21,18.95,9.57
452,deputatskiy,12,RU,1552955517,48,69.3,139.9,-17.78,3.2
453,changde,80,CN,1552955517,85,29.04,111.68,55.13,2.75
454,staunton,1,US,1552955499,38,38.15,-79.07,39.99,3.36
455,bandarbeyla,92,SO,1552955518,100,9.49,50.81,77.63,8.01
456,banda aceh,12,ID,1552955518,99,5.56,95.32,75.2,2.64
457,yeppoon,20,AU,1552953600,58,-23.13,150.74,86.0,3.36
458,tutoia,48,BR,1552955285,88,-2.76,-42.27,78.89,5.88
459,igrim,0,RU,1552955518,76,63.19,64.42,13.55,3.2
460,erzin,0,TR,1552953000,100,36.95,36.2,50.0,6.93
461,brzesko,0,PL,1552955444,74,49.97,20.61,37.0,3.36
462,billings,1,US,1552955207,52,45.79,-108.5,48.0,16.11
463,buarcos,0,PT,1552955413,93,40.16,-8.88,54.0,1.12
464,mogadishu,0,SO,1552955500,99,2.04,45.34,81.68,18.52
465,flin flon,20,CA,1552950000,45,54.77,-101.88,46.4,12.75
466,palmer,90,US,1552955490,65,61.6,-149.11,45.0,18.34
467,umm lajj,8,SA,1552955519,100,25.02,37.27,60.8,8.46
468,kawanishi,75,JP,1552955348,71,34.87,135.41,52.0,4.7
469,la gomera,40,GT,1552953600,66,14.09,-91.05,86.0,10.25
470,dubbo,0,AU,1552953600,53,-32.25,148.6,75.2,8.05
471,tehri,44,IN,1552955520,70,30.38,78.48,39.83,2.3
472,doka,0,SD,1552955520,30,13.52,35.76,74.57,9.69
473,opuwo,36,NA,1552955521,44,-18.06,13.84,68.36,3.53
474,tiznit,0,MA,1552955521,91,29.7,-9.73,57.38,3.42
475,san antonio,0,CL,1552953600,62,-33.58,-71.61,59.0,5.82
476,la baule-escoublac,90,FR,1552955407,93,47.28,-2.4,48.0,3.36
477,samarai,68,PG,1552955523,100,-10.62,150.67,80.33,3.98
478,manzhouli,68,CN,1552955524,60,49.6,117.43,30.74,13.94
479,japura,48,ID,1552955524,96,-0.42,102.29,71.87,2.64
480,rio grande,88,BR,1552955275,99,-32.03,-52.1,71.06,8.01
481,jiwani,0,PK,1552955524,83,25.05,61.74,66.38,15.05
482,kavieng,0,PG,1552955524,95,-2.57,150.8,85.73,9.35
483,pojuca,20,BR,1552953600,79,-12.42,-38.33,84.2,12.75
484,tanete,8,ID,1552955525,74,-3.94,119.78,82.94,5.88
485,state college,75,US,1552955430,37,40.79,-77.86,37.0,13.87
486,marburg,8,DE,1552955480,92,50.81,8.78,37.0,2.24
487,lompoc,20,US,1552955523,67,34.64,-120.46,70.0,6.93
488,dunedin,0,NZ,1552955375,74,-45.87,170.5,63.0,15.99
489,san vicente,0,SV,1552955145,66,13.64,-88.78,84.2,6.93
490,natal,20,BR,1552953600,83,-5.81,-35.21,80.6,3.36
491,hamilton,90,BM,1552955487,93,32.3,-64.78,59.0,18.34
492,san cristobal,75,EC,1552955515,77,-0.39,-78.55,62.6,8.05
493,kulhudhuffushi,76,MV,1552955528,100,6.62,73.07,83.93,7.0
494,salta,40,AR,1552953600,82,-24.79,-65.41,71.6,5.82
495,mezen,88,RU,1552955528,86,65.85,44.24,33.71,9.24
496,klaksvik,88,FO,1552954800,93,62.23,-6.59,44.6,10.29
497,tenenkou,0,ML,1552955529,55,14.46,-4.91,78.98,5.21
498,sept-iles,75,CA,1552954997,57,50.2,-66.38,21.0,9.17
499,bayir,0,TR,1552953000,93,37.27,28.22,48.0,3.36
500,santa isabel do rio negro,36,BR,1552955369,83,-0.41,-65.02,80.51,3.98
501,macau,36,BR,1552955529,90,-5.11,-36.64,77.36,5.44
502,les cayes,0,HT,1552955530,100,18.19,-73.75,77.27,9.35
503,mbandaka,32,CD,1552955530,95,0.05,18.26,75.83,2.75
504,phibun mangsahan,12,TH,1552953600,61,15.24,105.23,78.8,3.36
505,mayskiy,40,RU,1552953600,80,43.63,44.06,35.6,2.24
506,haines junction,92,CA,1552955530,92,60.75,-137.51,37.13,2.86
507,ibirataia,0,BR,1552955530,64,-14.07,-39.64,79.61,7.67
508,borovoy,76,RU,1552955531,91,63.23,52.89,30.65,9.24
509,shihezi,24,CN,1552955531,73,44.3,86.03,16.25,3.65
510,beira,20,ES,1552955473,81,43.2,-8.36,51.01,2.24
511,opoczno,0,PL,1552955430,81,51.38,20.29,39.0,13.04
512,margate,75,AU,1552955499,59,-43.03,147.26,71.01,4.7
513,gamba,0,CN,1552955531,26,28.28,88.52,-16.16,1.19
514,mount gambier,90,AU,1552953600,88,-37.83,140.78,66.2,10.29
515,bethel,40,US,1552953360,73,60.79,-161.76,23.0,14.99
516,itaituba,32,BR,1552955533,90,-4.26,-55.99,78.26,2.42
517,greenwood,1,US,1552955402,28,32.03,-101.9,62.6,11.41
518,areka,8,ET,1552955534,51,7.07,37.71,60.44,4.76
519,miri,0,NG,1552955535,55,10.31,9.75,66.29,3.76
520,stolin,68,BY,1552955535,91,51.89,26.85,36.68,5.66
521,ampanihy,100,MG,1552955536,92,-24.69,44.75,69.53,3.87
522,tadine,92,NC,1552955536,99,-21.55,167.88,78.98,12.37
523,belmonte,0,PT,1552955476,62,40.36,-7.35,44.01,3.0
524,saint-georges,48,CA,1552955508,51,46.12,-70.67,19.0,5.44
525,henties bay,0,NA,1552953732,91,-22.12,14.28,62.01,3.0
526,moose factory,1,CA,1552953600,65,51.26,-80.61,6.8,8.05
527,tiarei,20,PF,1552955002,70,-17.53,-149.33,87.8,4.7
528,akonolinga,8,CM,1552955538,96,3.77,12.24,70.25,1.97
529,hilton head island,1,US,1552955500,44,32.16,-80.75,62.6,3.36
530,pangody,8,RU,1552955538,60,65.85,74.49,4.91,8.34
531,zvishavane,32,ZW,1552955538,86,-20.32,30.05,56.39,2.64
532,leeton,0,AU,1552953600,42,-34.55,146.4,82.4,8.05
533,mayumba,80,GA,1552955539,100,-3.44,10.65,78.89,5.77
534,rach gia,40,VN,1552953600,88,10.02,105.08,80.6,2.24
535,cherskiy,24,RU,1552955539,74,68.75,161.3,-11.39,8.9
536,dauriya,88,RU,1552955539,77,49.93,116.85,29.21,16.84
537,coari,80,BR,1552955539,85,-4.09,-63.14,81.86,3.98
538,manakara,92,MG,1552955539,95,-22.14,48.01,78.17,7.23
539,nome,1,US,1552955498,39,30.04,-94.42,66.2,6.93
540,springdale,1,US,1552955253,29,36.19,-94.13,60.8,6.93
541,sarkand,44,KZ,1552955275,94,45.41,79.91,20.66,3.76
542,champerico,40,MX,1552952460,60,16.38,-93.6,73.4,20.8
543,zehdenick,88,DE,1552955530,80,52.98,13.33,41.0,12.75
544,kudahuvadhoo,56,MV,1552955541,100,2.67,72.89,81.41,4.54
545,ezhou,0,CN,1552955542,87,30.41,114.88,57.02,14.5
546,tezu,88,IN,1552955542,97,27.93,96.16,50.27,1.74
547,bonavista,36,CA,1552955405,89,48.65,-53.11,25.0,3.0
